[
    {
        "careNm": "(사)대구수의사회",
        "careAddr": "대구광역시 북구 호국로 229 (서변동) 6층",
        "lat": 35.922276,
        "lng": 128.59904,
        "careTel": "053-764-3708"
    },
    {
        "careNm": "(사)동물보호관리협회",
        "careAddr": "부산광역시 강서구 가락대로1283번길 25-2 (봉림동) ",
        "lat": 35.178925,
        "lng": 128.89975,
        "careTel": "***********"
    },
    {
        "careNm": "(사)동부동물보호협회",
        "careAddr": "부산광역시 해운대구 송정2로13번길 46 (송정동) ",
        "lat": 35.194817,
        "lng": 129.20631,
        "careTel": "051-701-7599"
    },
    {
        "careNm": "(사)동부동물보호협회",
        "careAddr": "부산광역시 해운대구 송정2로13번길 46 (송정동) ",
        "lat": 35.181606,
        "lng": 129.19846,
        "careTel": "051-701-7599"
    },
    {
        "careNm": "(사)동부동물보호협회",
        "careAddr": "부산광역시 해운대구 송정2로13번길 46 (송정동) ",
        "lat": 35.194817,
        "lng": 129.20631,
        "careTel": "051-701-7599"
    },
    {
        "careNm": "(사)영일동물플러스",
        "careAddr": "경상북도 포항시 북구 흥해읍 덕장길 224 (흥해읍) ",
        "lat": 36.145683,
        "lng": 129.33263,
        "careTel": "054-262-8295"
    },
    {
        "careNm": "(사)하얀비둘기",
        "careAddr": "부산광역시 강서구 제도로 726 (강동동) ",
        "lat": 35.177498,
        "lng": 128.91702,
        "careTel": "051-293-9779"
    },
    {
        "careNm": "(사)하얀비둘기",
        "careAddr": "부산광역시 강서구 제도로 726 (강동동) ",
        "lat": 35.1775,
        "lng": 128.91702,
        "careTel": "051-293-9779"
    },
    {
        "careNm": "(사)하얀비둘기",
        "careAddr": "부산광역시 강서구 제도로 726 (강동동) ",
        "lat": 35.1775,
        "lng": 128.91702,
        "careTel": "051-293-9779"
    },
    {
        "careNm": "119동물병원",
        "careAddr": "대구광역시 달성군 다사읍 달구벌대로 893 (다사읍, 대실요양병원 장례식장) 다사읍 관할",
        "lat": 35.857166,
        "lng": 128.46654,
        "careTel": "053-585-1195"
    },
    {
        "careNm": "21세기동물병원",
        "careAddr": "전라북도 전주시 덕진구 송천동1가 626-42",
        "lat": 35.85935,
        "lng": 127.125465,
        "careTel": "063-251-1015"
    },
    {
        "careNm": "24시센트럴동물메디컬",
        "careAddr": "서울특별시 성동구 고산자로 207 (행당동) ",
        "lat": 37.55869,
        "lng": 127.03371,
        "careTel": "02-3395-7975"
    },
    {
        "careNm": "24시아이동물메디컬",
        "careAddr": "경기도 부천시 오정구 소사로 779 (원종동) 201호",
        "lat": 37.52566,
        "lng": 126.804565,
        "careTel": "032-677-5262"
    },
    {
        "careNm": "GD동물병원",
        "careAddr": "서울특별시 강동구 상일로 13 (상일동) 1~2층 GD동물병원",
        "lat": 37.548244,
        "lng": 127.17312,
        "careTel": "02-429-8822"
    },
    {
        "careNm": "MK동물병원",
        "careAddr": "울산광역시 울주군 온산읍 덕신로 250 (온산읍) ",
        "lat": 35.433533,
        "lng": 129.30873,
        "careTel": "052-237-2475"
    },
    {
        "careNm": "가나동물병원",
        "careAddr": "경기도 부천시 소사구 경인로 72 (송내동) ",
        "lat": 37.48355,
        "lng": 126.76318,
        "careTel": "032-665-0075"
    },
    {
        "careNm": "가정견훈련소",
        "careAddr": "충청북도 증평군 도안면 입장길 239  ",
        "lat": 36.846962,
        "lng": 127.60822,
        "careTel": "010-3169-1151"
    },
    {
        "careNm": "가정동물병원",
        "careAddr": "인천광역시 서구 가정로 346 (가정동) ",
        "lat": 37.51567,
        "lng": 126.67304,
        "careTel": "032-575-0833"
    },
    {
        "careNm": "가평군유기동물보호소",
        "careAddr": "경기도 가평군 가평읍 아랫마장길 59 (가평읍, 농업기술센터) 가평 유기동물 보호소(10:00~18:00)",
        "lat": 37.845997,
        "lng": 127.4987,
        "careTel": "031-580-4794"
    },
    {
        "careNm": "강남동물병원",
        "careAddr": "울산광역시 남구 돋질로 232 (달동) 1층",
        "lat": 35.542603,
        "lng": 129.33047,
        "careTel": "052-271-0075"
    },
    {
        "careNm": "강동리본센터(reborn)",
        "careAddr": "서울특별시 강동구 양재대로81길 73 (성내동) ",
        "lat": 37.523876,
        "lng": 127.13028,
        "careTel": "070-4163-7350"
    },
    {
        "careNm": "강릉시 동물사랑센터",
        "careAddr": "강원도 강릉시 성산면 내맬길 172  ",
        "lat": 37.698875,
        "lng": 128.82927,
        "careTel": "033-641-7515"
    },
    {
        "careNm": "강진군 유기견 보호소",
        "careAddr": "전라남도 강진군 강진읍 초지길 109-62 (강진읍, 강진군상하수도사업소) ",
        "lat": 34.624813,
        "lng": 126.7774,
        "careTel": "061-430-3237"
    },
    {
        "careNm": "강현림동물병원",
        "careAddr": "서울특별시 양천구 등촌로 160 (목동) 1층",
        "lat": 37.543915,
        "lng": 126.862465,
        "careTel": "02-2642-9159"
    },
    {
        "careNm": "거제시유기동물보호소",
        "careAddr": "경상남도 거제시 사등면 두동로1길 109  거제시유기동물보호소",
        "lat": 34.883755,
        "lng": 128.57368,
        "careTel": "055-639-6368"
    },
    {
        "careNm": "거창유기동물보호센터",
        "careAddr": "경상남도 거창군 남상면 수남로 1934-12  ",
        "lat": 35.651665,
        "lng": 127.91292,
        "careTel": "055-945-6500"
    },
    {
        "careNm": "경동동물병원",
        "careAddr": "인천광역시 중구 개항로 68 (경동) 경동동물병원",
        "lat": 37.471954,
        "lng": 126.629944,
        "careTel": "032-765-9988"
    },
    {
        "careNm": "경동동물병원",
        "careAddr": "인천광역시 중구 개항로 68 (경동) ",
        "lat": 37.471954,
        "lng": 126.629944,
        "careTel": "032-765-9988"
    },
    {
        "careNm": "경동동물병원",
        "careAddr": "인천광역시 중구 개항로 68 (경동) 경동동물병원",
        "lat": 37.47196,
        "lng": 126.629944,
        "careTel": "032-765-9988"
    },
    {
        "careNm": "경산시유기동물보호소",
        "careAddr": "경상북도 경산시 용성면 사양지길 95 (용성면) ",
        "lat": 35.778397,
        "lng": 128.88507,
        "careTel": "010-2536-0955"
    },
    {
        "careNm": "고령군 유기견 보호소",
        "careAddr": "경상북도 고령군 운수면 하법길 37 (운수면) ",
        "lat": 35.771927,
        "lng": 128.30037,
        "careTel": "***********"
    },
    {
        "careNm": "고성군유기동물보호소",
        "careAddr": "경상남도 고성군 고성읍 남해안대로 2829-60  고성군농업기술센터 동물보호센터",
        "lat": 34.996822,
        "lng": 128.32538,
        "careTel": "055-670-4314"
    },
    {
        "careNm": "고양시동물보호센터",
        "careAddr": "경기도 고양시 덕양구 고양대로 1695 (원흥동, 고양시 농업기술센터) 고양시동물보호센터",
        "lat": 37.649643,
        "lng": 126.87027,
        "careTel": "031-962-3232"
    },
    {
        "careNm": "고양이보호분양센터",
        "careAddr": "경상남도 통영시 한산면 호두1길 351  공공형 고양이 보호분양센터",
        "lat": 34.749905,
        "lng": 128.49411,
        "careTel": "055-650-6250"
    },
    {
        "careNm": "고흥군임시보호센터",
        "careAddr": "전라남도 고흥군 포두면 우주로 607 (포두면, 소매점) ",
        "lat": 34.570545,
        "lng": 127.34101,
        "careTel": "***********"
    },
    {
        "careNm": "곡성군동물보호소",
        "careAddr": "전라남도 곡성군 곡성읍 군청로 50  보호소 주소 : 전남 곡성군 곡성읍 구원리 888",
        "lat": 35.28203,
        "lng": 127.29196,
        "careTel": "061-360-8393"
    },
    {
        "careNm": "공주시 동물보호센터",
        "careAddr": "충청남도 공주시 우성면 내산목천길 52-15  ",
        "lat": 36.492302,
        "lng": 127.100105,
        "careTel": "041-840-3495"
    },
    {
        "careNm": "광명반함센터",
        "careAddr": "경기도 광명시 오리로854번길 10 (철산동) 지하1층",
        "lat": 37.47437,
        "lng": 126.86847,
        "careTel": "02-2680-5001"
    },
    {
        "careNm": "광양시 임시보호소",
        "careAddr": "전라남도 광양시 봉강면 인덕로 1169-20 (봉강면) 지곡리 864-24",
        "lat": 34.987904,
        "lng": 127.57652,
        "careTel": "061-797-3386"
    },
    {
        "careNm": "광주TNR동물병원송정",
        "careAddr": "경기도 광주시 경안천로 142 (송정동) 광주TNR동물병원",
        "lat": 37.417343,
        "lng": 127.275024,
        "careTel": "031-798-7583"
    },
    {
        "careNm": "광주TNR동물병원초월",
        "careAddr": "경기도 광주시 초월읍 현산로385번길 74-12 (초월읍) ",
        "lat": 37.415894,
        "lng": 127.27616,
        "careTel": "031-798-7581"
    },
    {
        "careNm": "광주동물보호센터",
        "careAddr": "광주광역시 북구 본촌마을길 25-1 (본촌동) 광주동물보호센터",
        "lat": 35.222713,
        "lng": 126.88215,
        "careTel": "062-613-6770"
    },
    {
        "careNm": "광주동물보호센터",
        "careAddr": "광주광역시 북구 본촌마을길 25-1 (본촌동) 광주동물보호센터",
        "lat": 35.222713,
        "lng": 126.88215,
        "careTel": "062-613-6770"
    },
    {
        "careNm": "광주동물보호센터",
        "careAddr": "광주광역시 북구 본촌마을길 25-1 (본촌동) 광주동물보호센터",
        "lat": 35.222713,
        "lng": 126.88215,
        "careTel": "062-613-6770"
    },
    {
        "careNm": "광주동물보호센터",
        "careAddr": "광주광역시 북구 본촌마을길 25-1 (본촌동) 광주동물보호센터",
        "lat": 35.222713,
        "lng": 126.88215,
        "careTel": "062-613-6770"
    },
    {
        "careNm": "광주동물보호센터",
        "careAddr": "광주광역시 북구 본촌마을길 25-1 (본촌동) 광주동물보호센터",
        "lat": 35.222713,
        "lng": 126.88215,
        "careTel": "062-613-6770"
    },
    {
        "careNm": "광주동물보호센터",
        "careAddr": "광주광역시 북구 본촌마을길 25-1 (본촌동) 광주동물보호센터",
        "lat": 35.222713,
        "lng": 126.88215,
        "careTel": "062-613-6770"
    },
    {
        "careNm": "광주첨단YB동물병원",
        "careAddr": "광주광역시 북구 첨단연신로 100 (신용동) 대성베르힐 A동 206-207호",
        "lat": 35.206856,
        "lng": 126.86481,
        "careTel": "062-574-1888"
    },
    {
        "careNm": "괴산증평동물보호센터",
        "careAddr": "충청북도 증평군 도안면 입장길 239 (도안면) ",
        "lat": 36.846966,
        "lng": 127.60824,
        "careTel": "***********"
    },
    {
        "careNm": "구례군동물보호센터",
        "careAddr": "전라남도 구례군 용방면 용방로 64-11  ",
        "lat": 35.222416,
        "lng": 127.45878,
        "careTel": "061-781-2022"
    },
    {
        "careNm": "구미시 동물보호센터",
        "careAddr": "경상북도 구미시 옥성면 선상동로 1358  애니멀 케어 센터",
        "lat": 36.3401,
        "lng": 128.27876,
        "careTel": "054-471-5718"
    },
    {
        "careNm": "군산유기동물보호센터",
        "careAddr": "전라북도 군산시 대야면 보덕안정길 108-20  ",
        "lat": 35.960815,
        "lng": 126.81631,
        "careTel": "063-451-2975"
    },
    {
        "careNm": "군위종합동물병원",
        "careAddr": "대구광역시 군위군 군위읍 군청로 49-18  1층",
        "lat": 36.230713,
        "lng": 128.56616,
        "careTel": "010-5121-3193"
    },
    {
        "careNm": "금강동물병원",
        "careAddr": "대구광역시 수성구 동원로 150 (만촌동) 금강동물병원",
        "lat": 35.87167,
        "lng": 128.63585,
        "careTel": "053-746-7111"
    },
    {
        "careNm": "금왕동물병원",
        "careAddr": "충청북도 음성군 금왕읍 대금로 1498 (금왕읍) 금왕동물병원",
        "lat": 36.98921,
        "lng": 127.59848,
        "careTel": "043-877-0763"
    },
    {
        "careNm": "금일동물보호센터",
        "careAddr": "충청남도 홍성군 홍동면 충절로 625 (홍동면) ",
        "lat": 36.57882,
        "lng": 126.70548,
        "careTel": "041-634-5400"
    },
    {
        "careNm": "김천시 동물보호센터",
        "careAddr": "경상북도 김천시 구성면 남김천대로 3296-22  하강리 44(김천시 유기동물보호센터)",
        "lat": 36.080418,
        "lng": 128.10065,
        "careTel": "054-421-2547"
    },
    {
        "careNm": "나주유기동물보호센터",
        "careAddr": "전라남도 나주시 산포면 내기3길 71-43 [*미고시] ",
        "lat": 35.048203,
        "lng": 126.78124,
        "careTel": "010-2331-7377"
    },
    {
        "careNm": "남부여동물보호소",
        "careAddr": "충청남도 부여군 임천면 위덕로47번길 36-12  (점리)",
        "lat": 36.21589,
        "lng": 126.89092,
        "careTel": "041-837-8277"
    },
    {
        "careNm": "남산동물병원",
        "careAddr": "서울특별시 용산구 후암로 51 (후암동) 1층",
        "lat": 37.550404,
        "lng": 126.97707,
        "careTel": "02-778-7582"
    },
    {
        "careNm": "남양주시동물보호센터",
        "careAddr": "경기도 남양주시 경강로163번길 32-27 (이패동) ",
        "lat": 37.608788,
        "lng": 127.191536,
        "careTel": "031-590-2785"
    },
    {
        "careNm": "남해군동물보호센터",
        "careAddr": "경상남도 남해군 이동면 남해대로 2449  동물보호센터",
        "lat": 34.80354,
        "lng": 127.95367,
        "careTel": "055-860-3974"
    },
    {
        "careNm": "내품애센터",
        "careAddr": "서울특별시 서대문구 모래내로 333 (홍은동) ",
        "lat": 37.58041,
        "lng": 126.9338,
        "careTel": "02-330-3821"
    },
    {
        "careNm": "노원반려동물문화센터",
        "careAddr": "서울특별시 노원구 수락산로 258 (상계동, 호성빌딩) 1층",
        "lat": 37.671352,
        "lng": 127.04998,
        "careTel": "02-933-8500"
    },
    {
        "careNm": "늘푸른동물병원",
        "careAddr": "인천광역시 부평구 후정동로 60 (삼산동) ",
        "lat": 37.52271,
        "lng": 126.73839,
        "careTel": "032-507-0075"
    },
    {
        "careNm": "다나동물병원",
        "careAddr": "강원도 정선군 정선읍 비봉로 46  ",
        "lat": 37.381096,
        "lng": 128.66315,
        "careTel": "033-563-6563"
    },
    {
        "careNm": "다나동물병원",
        "careAddr": "광주광역시 서구 내방로 326 (화정동) 1층",
        "lat": 35.15732,
        "lng": 126.87633,
        "careTel": "062-365-1491"
    },
    {
        "careNm": "단양군동물보호센터",
        "careAddr": "충청북도 단양군 매포읍 우덕리 828번지",
        "lat": 37.01298,
        "lng": 128.31375,
        "careTel": "043-420-2742"
    },
    {
        "careNm": "담양군 동물보호센터",
        "careAddr": "전라남도 담양군 용면 시암골로 280-57 (용면) :용면 두장리 21번지",
        "lat": 35.358566,
        "lng": 127.00157,
        "careTel": "061-380-2734"
    },
    {
        "careNm": "대구수의사회(달성군)",
        "careAddr": "대구광역시 북구 호국로 229 (서변동) ",
        "lat": 35.922276,
        "lng": 128.59904,
        "careTel": "053-764-3708"
    },
    {
        "careNm": "대구수의사회(아이펫)",
        "careAddr": "대구광역시 서구 서대구로 64 (평리동) ",
        "lat": 35.863823,
        "lng": 128.55655,
        "careTel": "053-573-1175"
    },
    {
        "careNm": "대구시수의사회(더펫)",
        "careAddr": "대구광역시 서구 서대구로 361 (비산동) 2층",
        "lat": 35.889072,
        "lng": 128.56073,
        "careTel": "053-352-0622"
    },
    {
        "careNm": "대구시수의사회(동산)",
        "careAddr": "대구광역시 중구 남성로 서성로 34 (남성로) ",
        "lat": 35.867535,
        "lng": 128.59044,
        "careTel": "053-254-3366"
    },
    {
        "careNm": "대구시수의사회(동인)",
        "careAddr": "대구광역시 중구 동인동4가 국채보상로 724 ",
        "lat": 35.868385,
        "lng": 128.60968,
        "careTel": "070-4466-1575"
    },
    {
        "careNm": "대구시수의사회(보경)",
        "careAddr": "대구광역시 서구 달서로 165 (비산동) ",
        "lat": 35.87703,
        "lng": 128.571,
        "careTel": "053-559-9020"
    },
    {
        "careNm": "대구시수의사회(삼덕)",
        "careAddr": "대구광역시 중구 삼덕동1가 달구벌대로 2145 ",
        "lat": 35.864857,
        "lng": 128.59839,
        "careTel": "053-426-1731"
    },
    {
        "careNm": "대구시수의사회(삼성)",
        "careAddr": "대구광역시 서구 서대구로 24 (내당동) ",
        "lat": 35.859802,
        "lng": 128.5572,
        "careTel": "053-556-8575"
    },
    {
        "careNm": "대구시수의사회(평리)",
        "careAddr": "대구광역시 서구 서대구로 189 (평리동) 2층",
        "lat": 35.874947,
        "lng": 128.55463,
        "careTel": "053-552-0075"
    },
    {
        "careNm": "대구유기동물보호센터",
        "careAddr": "대구광역시 동구 금강로 151-13 (금강동) ",
        "lat": 35.863876,
        "lng": 128.73596,
        "careTel": "053-964-6258"
    },
    {
        "careNm": "대구유기동물보호협회",
        "careAddr": "대구광역시 동구 금강로 151-13 (금강동) ",
        "lat": 35.863876,
        "lng": 128.73596,
        "careTel": "053-964-6258"
    },
    {
        "careNm": "대구유기동물보호협회",
        "careAddr": "대구광역시 동구 금강로 151-13 (금강동) ",
        "lat": 35.863876,
        "lng": 128.73596,
        "careTel": "053-964-6258"
    },
    {
        "careNm": "대구유기동물보호협회",
        "careAddr": "대구광역시 동구 금강로 151-13 (금강동) ",
        "lat": 35.86364,
        "lng": 128.73563,
        "careTel": "053-964-6258"
    },
    {
        "careNm": "대전동물보호센터",
        "careAddr": "대전광역시 유성구 금남구즉로 1234 (금고동) 대전광역시 동물보호센터",
        "lat": 36.458782,
        "lng": 127.38283,
        "careTel": "042-270-7239"
    },
    {
        "careNm": "대한동물사랑협회",
        "careAddr": "전라남도 순천시 상사면 민속마을길 978 (상사면) .",
        "lat": 34.92693,
        "lng": 127.409966,
        "careTel": "061-755-7547"
    },
    {
        "careNm": "더나은동물병원",
        "careAddr": "전라북도 고창군 무장면 신촌농장길 98  ",
        "lat": 35.402176,
        "lng": 126.55647,
        "careTel": "063-560-2629"
    },
    {
        "careNm": "데이지동물병원",
        "careAddr": "전북특별자치도 전주시 완산구 거마평로 170 (효자동1가) 데이지동물병원",
        "lat": 35.80771,
        "lng": 127.11643,
        "careTel": "063-225-7588"
    },
    {
        "careNm": "동구종합동물병원",
        "careAddr": "부산광역시 동구 망양로 835-1 (수정동) ",
        "lat": 35.136074,
        "lng": 129.04568,
        "careTel": "051-441-6383"
    },
    {
        "careNm": "동대문구청",
        "careAddr": "서울특별시 동대문구 천호대로 145 (용두동) ",
        "lat": 37.578915,
        "lng": 127.0697,
        "careTel": "02-2127-4268"
    },
    {
        "careNm": "동물보호관리협회",
        "careAddr": "부산광역시 강서구 가락대로1283번길 25-2 (봉림동) ",
        "lat": 35.178925,
        "lng": 128.89975,
        "careTel": "***********"
    },
    {
        "careNm": "동부동물병원",
        "careAddr": "전라북도 전주시 완산구 경원동1가 3-10",
        "lat": 35.817005,
        "lng": 127.14808,
        "careTel": "063-231-2455"
    },
    {
        "careNm": "동부동물보호협회",
        "careAddr": "부산광역시 해운대구 송정2로13번길 46 (송정동) ",
        "lat": 35.19481,
        "lng": 129.20631,
        "careTel": "051-701-7599"
    },
    {
        "careNm": "동인동물병원",
        "careAddr": "대구광역시 중구 동인동4가 국채보상로 724 (동인동4가) 가창면 관할",
        "lat": 35.868385,
        "lng": 128.60968,
        "careTel": "053-424-4258"
    },
    {
        "careNm": "동해시동물보호센터",
        "careAddr": "강원도 동해시 대동로 159-13 (송정동, 동해시유기동물보호소) ",
        "lat": 37.485115,
        "lng": 129.11897,
        "careTel": "033-522-2990"
    },
    {
        "careNm": "동행동물병원",
        "careAddr": "대구광역시 달서구 진천로 117 (대천동) 117,118 호",
        "lat": 35.818893,
        "lng": 128.52124,
        "careTel": "053-636-8720"
    },
    {
        "careNm": "두손너에게",
        "careAddr": "광주광역시 북구 지야길 2 (지야동) ",
        "lat": 35.229958,
        "lng": 126.88529,
        "careTel": "***********"
    },
    {
        "careNm": "둔촌동물병원",
        "careAddr": "서울특별시 강동구 양재대로 1385 (성내동) 둔촌동물병원",
        "lat": 37.52993,
        "lng": 127.13662,
        "careTel": "02-474-5100"
    },
    {
        "careNm": "디디동물병원",
        "careAddr": "인천광역시 강화군 강화읍 강화대로 254-1  ",
        "lat": 37.741173,
        "lng": 126.50122,
        "careTel": "010-2679-3786"
    },
    {
        "careNm": "디아크 동물종합병원",
        "careAddr": "서울특별시 동작구 장승배기로27길 18 (노량진동) 1층",
        "lat": 37.511715,
        "lng": 126.939026,
        "careTel": "02-816-7582"
    },
    {
        "careNm": "디아크동물종합병원",
        "careAddr": "서울특별시 동작구 장승배기로27길 18 (노량진동) ",
        "lat": 37.511715,
        "lng": 126.939026,
        "careTel": "02-816-7582"
    },
    {
        "careNm": "리틀쥬동물의료원",
        "careAddr": "울산광역시 남구 봉월로 104 (신정동) ",
        "lat": 35.541733,
        "lng": 129.3063,
        "careTel": "052-268-8884"
    },
    {
        "careNm": "링크늘푸른동물병원",
        "careAddr": "전라북도 전주시 완산구 서원로 225 (중화산동2가) ",
        "lat": 35.81275,
        "lng": 127.11926,
        "careTel": "063-281-0075"
    },
    {
        "careNm": "마포구청",
        "careAddr": "서울특별시 마포구 월드컵로 212 (성산동, 마포구청) 8층 경제진흥과",
        "lat": 37.566326,
        "lng": 126.90149,
        "careTel": "02-3153-8542"
    },
    {
        "careNm": "멘토동물병원",
        "careAddr": "대구광역시 수성구 용학로 294 (범물동) 2층",
        "lat": 35.821556,
        "lng": 128.64058,
        "careTel": "053-291-7579"
    },
    {
        "careNm": "목포시유기동물보호소",
        "careAddr": "전라남도 무안군 삼향읍 석매길 36  ",
        "lat": 34.853508,
        "lng": 126.43002,
        "careTel": "010-9678-9966"
    },
    {
        "careNm": "무안군유기동물보호소",
        "careAddr": "전라남도 무안군 무안읍 면주길 99  ",
        "lat": 35.017838,
        "lng": 126.47833,
        "careTel": "061-450-4059"
    },
    {
        "careNm": "무주군",
        "careAddr": "전북특별자치도 무주군 적상면 구억로 110-27  ",
        "lat": 35.951366,
        "lng": 127.65804,
        "careTel": "063-320-2819"
    },
    {
        "careNm": "밀양시 동물보호센터",
        "careAddr": "경상남도 밀양시 삼랑진읍 천태로 472 (삼랑진읍) ",
        "lat": 35.407684,
        "lng": 128.87978,
        "careTel": "070-4113-7288"
    },
    {
        "careNm": "박영재동물병원",
        "careAddr": "전라북도 전주시 완산구 전주천서로 111 (서서학동) ",
        "lat": 35.810097,
        "lng": 127.14921,
        "careTel": "063-284-7774"
    },
    {
        "careNm": "박창석동물병원",
        "careAddr": "서울특별시 마포구 도화길 42 (도화동) ",
        "lat": 37.54151,
        "lng": 126.95035,
        "careTel": "02-6405-7582"
    },
    {
        "careNm": "반려동물 입양센터",
        "careAddr": "경상북도 구미시 인동22길 43-4 (진평동) ",
        "lat": 36.09438,
        "lng": 128.4246,
        "careTel": "054-716-0211"
    },
    {
        "careNm": "보령길고양이보호협회",
        "careAddr": "충청남도 보령시 남대천로 91 (대천동) 상가동 201호",
        "lat": 36.345833,
        "lng": 126.5914,
        "careTel": "***********"
    },
    {
        "careNm": "보령시유기동물보호소",
        "careAddr": "충청남도 보령시 녹문3길 7 (내항동) ",
        "lat": 36.332573,
        "lng": 126.58826,
        "careTel": "***********"
    },
    {
        "careNm": "봉화군유기동물보호소",
        "careAddr": "경상북도 봉화군 봉성면 농업인길 24 (봉성면) 봉화군농업기술센터",
        "lat": 36.90376,
        "lng": 128.77213,
        "careTel": "054-679-6868"
    },
    {
        "careNm": "부산동물보호센터",
        "careAddr": "부산광역시 강서구 맥도강변길 752-15 (대저2동) ",
        "lat": 35.151443,
        "lng": 128.93964,
        "careTel": "051-832-7119"
    },
    {
        "careNm": "부산동물보호센터",
        "careAddr": "부산광역시 강서구 맥도강변길 752-15 (대저2동) ",
        "lat": 35.151443,
        "lng": 128.93964,
        "careTel": "051-832-7119"
    },
    {
        "careNm": "부산동물보호센터",
        "careAddr": "부산광역시 강서구 맥도강변길 752-15 (대저2동) ",
        "lat": 35.151443,
        "lng": 128.93962,
        "careTel": "051-832-7119"
    },
    {
        "careNm": "부안군 동물보호센터",
        "careAddr": "전북특별자치도 부안군 주산면 주산로 369  부안군 동물보호센터",
        "lat": 35.665768,
        "lng": 126.735825,
        "careTel": "063-580-4499"
    },
    {
        "careNm": "부천시수의사회",
        "careAddr": "경기도 부천시 원미구 중동로 100 (중동) 아이파크 상가동 213호",
        "lat": 37.488747,
        "lng": 126.76579,
        "careTel": "032-661-7575"
    },
    {
        "careNm": "사단법인 동부",
        "careAddr": "부산광역시 해운대구 송정2로13번길 46 (송정동) ",
        "lat": 35.19481,
        "lng": 129.20631,
        "careTel": "051-701-7599"
    },
    {
        "careNm": "사랑동물병원",
        "careAddr": "울산광역시 남구 중앙로 165-1 (신정동) ",
        "lat": 35.53583,
        "lng": 129.31349,
        "careTel": "052-273-0075"
    },
    {
        "careNm": "사랑플러스동물병원",
        "careAddr": "전북특별자치도 전주시 덕진구 쪽구름2길 8 (여의동2가) 1층",
        "lat": 35.873573,
        "lng": 127.07605,
        "careTel": "063-211-0600"
    },
    {
        "careNm": "사천시 동물보호센터",
        "careAddr": "경상남도 사천시 용현면 진삼로 902  사천시유기동물보호소",
        "lat": 35.037525,
        "lng": 128.0673,
        "careTel": "055-831-3768"
    },
    {
        "careNm": "산청동물보호센터",
        "careAddr": "경상남도 산청군 산청읍 친환경로 2783-25 (산청읍) ",
        "lat": 35.426395,
        "lng": 127.88127,
        "careTel": "***********"
    },
    {
        "careNm": "산타클라라동물병원",
        "careAddr": "울산광역시 중구 다운로 1 (다운동) 대왕빌딩 1층",
        "lat": 35.555798,
        "lng": 129.27538,
        "careTel": "052-244-4296"
    },
    {
        "careNm": "산타클라라동물병원",
        "careAddr": "울산광역시 중구 다운로 1 (다운동) 대왕빌딩 1층",
        "lat": 35.555798,
        "lng": 129.27538,
        "careTel": "052-244-4296"
    },
    {
        "careNm": "산타클라라동물병원",
        "careAddr": "울산광역시 중구 다운로 1 (다운동) 대왕빌딩 1층",
        "lat": 35.555798,
        "lng": 129.27538,
        "careTel": "052-244-4296"
    },
    {
        "careNm": "산타클라라동물병원",
        "careAddr": "울산광역시 중구 다운로 1 (다운동) ",
        "lat": 35.555817,
        "lng": 129.27536,
        "careTel": "052-244-4296"
    },
    {
        "careNm": "삼산종합동물병원",
        "careAddr": "인천광역시 부평구 체육관로 40 (삼산동) ",
        "lat": 37.50824,
        "lng": 126.73617,
        "careTel": "032-330-0075"
    },
    {
        "careNm": "삼척시동물보호센터",
        "careAddr": "강원도 삼척시 미로면 동안로 86-45  ",
        "lat": 37.428772,
        "lng": 129.11024,
        "careTel": "033-571-2610"
    },
    {
        "careNm": "상주시 동물보호센터",
        "careAddr": "경상북도 상주시 사벌국면 상풍로 124  ",
        "lat": 36.343754,
        "lng": 128.13075,
        "careTel": "010-6682-1198"
    },
    {
        "careNm": "서산시 동물보호센터",
        "careAddr": "충청남도 서산시 인지면 무학재1길 99  ",
        "lat": 36.720757,
        "lng": 126.41265,
        "careTel": "041-660-2040"
    },
    {
        "careNm": "서울동물복지지원센터",
        "careAddr": "서울특별시 마포구 매봉산로 31 (상암동) 지하1층",
        "lat": 37.575996,
        "lng": 126.890076,
        "careTel": "02-2124-2839"
    },
    {
        "careNm": "서천군유기동물보호소",
        "careAddr": "충청남도 서천군 마산면 한마로 1189-19 ",
        "lat": 36.179523,
        "lng": 126.77238,
        "careTel": "041-950-4390"
    },
    {
        "careNm": "서초동물사랑센터",
        "careAddr": "서울특별시 서초구 양재천로19길 22 (양재동, 숨빌딩) 서초동물사랑센터",
        "lat": 37.47637,
        "lng": 127.038155,
        "careTel": "02-6956-7980"
    },
    {
        "careNm": "성동구청",
        "careAddr": "서울특별시 성동구 고산자로 270 (행당동) 10층 여성가족과",
        "lat": 37.563427,
        "lng": 127.03691,
        "careTel": "02-2286-6853"
    },
    {
        "careNm": "성주유기동물보호센터",
        "careAddr": "경상북도 성주군 선남면 선노로 522 (선남면) ",
        "lat": 35.920765,
        "lng": 128.39424,
        "careTel": "***********"
    },
    {
        "careNm": "세인트동물병원",
        "careAddr": "대구광역시 수성구 청호로 484 (만촌동) ",
        "lat": 35.857838,
        "lng": 128.64505,
        "careTel": "053-744-8285"
    },
    {
        "careNm": "세종유기동물보호센터",
        "careAddr": "세종특별자치시  전동면 미륵당1길 188 (전동면) ",
        "lat": 36.673023,
        "lng": 127.221306,
        "careTel": "010-4435-3720"
    },
    {
        "careNm": "세종종합동물병원",
        "careAddr": "세종특별자치시 조치원읍 죽림로 60  세종종합동물병원",
        "lat": 36.599155,
        "lng": 127.2983,
        "careTel": "044-868-8275"
    },
    {
        "careNm": "수원시 동물보호센터",
        "careAddr": "경기도 수원시 영통구 광교호수로 234 (하동, 수원시 동물보호센터) 하동 40-10",
        "lat": 37.285023,
        "lng": 127.07871,
        "careTel": "031-228-3557"
    },
    {
        "careNm": "순창유기동물보호소",
        "careAddr": "전라북도 순창군 구림면 삭골길 56-1  ",
        "lat": 35.437366,
        "lng": 127.041855,
        "careTel": "063-650-5641"
    },
    {
        "careNm": "스마일동물병원",
        "careAddr": "울산광역시 남구 대학로 112 (무거동) ",
        "lat": 35.544704,
        "lng": 129.26088,
        "careTel": "052-277-0075"
    },
    {
        "careNm": "시흥동물누리보호센터",
        "careAddr": "경기도 시흥시 뒷방울길 218 (정왕동) ",
        "lat": 37.37397,
        "lng": 126.742546,
        "careTel": "031-310-6945"
    },
    {
        "careNm": "신공항동물병원",
        "careAddr": "인천광역시 중구 운남동로3번길 9 (운남동) ",
        "lat": 37.488678,
        "lng": 126.533356,
        "careTel": "032-751-4598"
    },
    {
        "careNm": "신세계동물병원",
        "careAddr": "광주광역시 동구 중앙로 150 (호남동) ",
        "lat": 35.45646,
        "lng": 126.88529,
        "careTel": "062-226-7585"
    },
    {
        "careNm": "신세계동물병원",
        "careAddr": "대구광역시 수성구 수성동1가 명덕로 393 (수성동1가) ",
        "lat": 35.854717,
        "lng": 128.6132,
        "careTel": "053-751-6693"
    },
    {
        "careNm": "신안군유기동물보호소",
        "careAddr": "전라남도 무안군 삼향읍 석매길 36  ",
        "lat": 34.853508,
        "lng": 126.43002,
        "careTel": "***********"
    },
    {
        "careNm": "신영재동물병원",
        "careAddr": "인천광역시 계양구 장제로 923 (병방동) ",
        "lat": 37.548847,
        "lng": 126.74137,
        "careTel": "032-552-0075"
    },
    {
        "careNm": "아산동물복지지원센터",
        "careAddr": "충청남도 아산시 환경공원로 158 (배미동) ",
        "lat": 36.800564,
        "lng": 126.97759,
        "careTel": "041-530-6200"
    },
    {
        "careNm": "아지동물병원",
        "careAddr": "서울특별시 성동구 독서당로 289 (금호동4가) ",
        "lat": 37.548077,
        "lng": 127.021034,
        "careTel": "02-6085-7750"
    },
    {
        "careNm": "안성시 동물보호센터",
        "careAddr": "경기도 안성시 중앙로 431-1 (봉남동) ",
        "lat": 37.00667,
        "lng": 127.274864,
        "careTel": "031-673-5491"
    },
    {
        "careNm": "안성시농업기술센터",
        "careAddr": "경기도 안성시 보개면 보개원삼로 219  안성시 농업기술센터",
        "lat": 37.02411,
        "lng": 127.286766,
        "careTel": "031-678-5494"
    },
    {
        "careNm": "양구군유기동물보호소",
        "careAddr": "강원도 양구군 국토정중앙면 삼팔선로 680  유기동물보호소",
        "lat": 38.050987,
        "lng": 128.0468,
        "careTel": "033-480-7785"
    },
    {
        "careNm": "양산시 동물보호센터",
        "careAddr": "경상남도 양산시 동면 양산대로 618  양산시 농업기술센터",
        "lat": 35.324547,
        "lng": 129.03442,
        "careTel": "055-392-5669"
    },
    {
        "careNm": "양양군유기동물보호소",
        "careAddr": "강원도 양양군 손양면 동막골길 115-35  .",
        "lat": 38.02046,
        "lng": 128.64331,
        "careTel": "033-670-2459"
    },
    {
        "careNm": "양평군유기동물보호소",
        "careAddr": "경기도 양평군 양평읍 농업기술센터길 59-1  ",
        "lat": 37.510906,
        "lng": 127.51331,
        "careTel": "031-770-2337"
    },
    {
        "careNm": "열린동물병원",
        "careAddr": "서울특별시 용산구 원효로2가 84-10",
        "lat": 37.53505,
        "lng": 126.96281,
        "careTel": "02-3273-0075"
    },
    {
        "careNm": "영광동물보호센터",
        "careAddr": "전라남도 영광군 불갑면 함영로 2755-48  ",
        "lat": 35.20515,
        "lng": 126.49414,
        "careTel": "***********"
    },
    {
        "careNm": "영덕반려동물입양센터",
        "careAddr": "경상북도 영덕군 영덕읍 중앙길 88-1  1층",
        "lat": 36.41075,
        "lng": 129.37045,
        "careTel": "054-733-7583"
    },
    {
        "careNm": "영월군 동물보호센터",
        "careAddr": "강원특별자치도 영월군 남면 갈골길 12  영월군 동물보호센터",
        "lat": 37.209248,
        "lng": 128.41283,
        "careTel": "033-374-4983"
    },
    {
        "careNm": "영주시 동물보호센터",
        "careAddr": "경상북도 영주시 장수면 반구로 143 [*미고시] 영주시동물보호센터",
        "lat": 36.772324,
        "lng": 128.59396,
        "careTel": "054-631-3997"
    },
    {
        "careNm": "영천유기동물보호센터",
        "careAddr": "경상북도 영천시 천문로 622-13 (오미동, 영천시농업기술센터) ",
        "lat": 35.990917,
        "lng": 128.92596,
        "careTel": "054-339-7177"
    },
    {
        "careNm": "예산임시동물보호센터",
        "careAddr": "충청남도 예산군 예산읍 군청로 22  ",
        "lat": 36.680843,
        "lng": 126.84465,
        "careTel": "041-339-7838"
    },
    {
        "careNm": "오렌지동물병원",
        "careAddr": "서울특별시 성동구 행당로8길 41-2 (행당동) ",
        "lat": 37.5562,
        "lng": 127.03397,
        "careTel": "02-2297-7585"
    },
    {
        "careNm": "오산 유기동물보호소",
        "careAddr": "경기도 오산시 성호대로 36 (오산동) ",
        "lat": 37.149086,
        "lng": 127.0652,
        "careTel": "031-372-9325"
    },
    {
        "careNm": "옥천동물병원",
        "careAddr": "충청북도 옥천군 옥천읍 삼금로 53 (옥천읍, 동물병원) 옥천동물병원",
        "lat": 36.30305,
        "lng": 127.56878,
        "careTel": "***********"
    },
    {
        "careNm": "와우동물병원",
        "careAddr": "울산광역시 울주군 언양읍 읍성로 135 (언양읍) ",
        "lat": 35.570267,
        "lng": 129.1231,
        "careTel": "052-225-0075"
    },
    {
        "careNm": "완주군유기동물보호소",
        "careAddr": "전라북도 완주군 용진읍 순지2길 187-6  ",
        "lat": 35.9419,
        "lng": 127.19032,
        "careTel": "063-290-3248"
    },
    {
        "careNm": "용인시 동물보호센터",
        "careAddr": "경기도 용인시 처인구 중부대로 1074-1 (삼가동) 용인시 동물보호센터",
        "lat": 37.243313,
        "lng": 127.15934,
        "careTel": "031-6193-3463"
    },
    {
        "careNm": "우리동물병원",
        "careAddr": "인천광역시 서구 서곶로 349 (연희동) 우리동물병원",
        "lat": 37.54889,
        "lng": 126.6767,
        "careTel": "032-566-0075"
    },
    {
        "careNm": "울산유기동물보호센터",
        "careAddr": "울산광역시 울주군 온양읍 발리 1144",
        "lat": 35.41029,
        "lng": 129.28851,
        "careTel": "052-238-6113"
    },
    {
        "careNm": "울산유기동물보호센터",
        "careAddr": "울산광역시 울주군 온양읍 화산발리로 543 (온양읍) ",
        "lat": 35.390892,
        "lng": 129.286,
        "careTel": "052-238-6113"
    },
    {
        "careNm": "울산유기동물보호센터",
        "careAddr": "울산광역시 울주군 온양읍 화산발리로 543  ",
        "lat": 35.41029,
        "lng": 129.28851,
        "careTel": "052-238-6113"
    },
    {
        "careNm": "울산유기동물보호센터",
        "careAddr": "울산광역시 울주군 온양읍 화산발리로 543 (온양읍) ",
        "lat": 35.390892,
        "lng": 129.286,
        "careTel": "052-238-6113"
    },
    {
        "careNm": "울산유기동물보호센터",
        "careAddr": "울산광역시 울주군 온양읍 화산발리로 543 (온양읍) ",
        "lat": 35.391132,
        "lng": 129.28583,
        "careTel": "052-238-6113"
    },
    {
        "careNm": "원주시동물보호센터",
        "careAddr": "강원특별자치도 원주시 호저면 칠봉로 109-17  ",
        "lat": 37.413876,
        "lng": 127.91424,
        "careTel": "033-731-1119"
    },
    {
        "careNm": "웰케어 동물병원",
        "careAddr": "서울특별시 마포구 월드컵북로 27 (서교동, 이화빌딩) 서교동447-2",
        "lat": 37.556877,
        "lng": 126.91908,
        "careTel": "02-337-7575"
    },
    {
        "careNm": "위더스 동물보호센터",
        "careAddr": "경기도 여주시 능서면 능서공원길 34 (능서면) ",
        "lat": 37.297234,
        "lng": 127.57594,
        "careTel": "031-882-4381"
    },
    {
        "careNm": "위더스 동물보호센터",
        "careAddr": "경기도 여주시 여양2로 42 (천송동) ",
        "lat": 37.307938,
        "lng": 127.67378,
        "careTel": "031-882-4381"
    },
    {
        "careNm": "유기견임시보호소",
        "careAddr": "강원도 고성군 간성읍 꽃내마루길 53-49  ",
        "lat": 38.349674,
        "lng": 128.43439,
        "careTel": "033-680-3724"
    },
    {
        "careNm": "유기동물 삼호 보호소",
        "careAddr": "전라남도 영암군 삼호읍 녹색로 1117-49 (삼호읍) 영암유기동물 삼호보호소",
        "lat": 34.74833,
        "lng": 126.48584,
        "careTel": "***********"
    },
    {
        "careNm": "유기동물보호센터",
        "careAddr": "경상북도 안동시 서후면 풍산태사로 3252-29 (서후면) ",
        "lat": 36.63599,
        "lng": 128.68384,
        "careTel": "***********"
    },
    {
        "careNm": "유기동물보호소",
        "careAddr": "전라남도 여수시 주동1길 32 (주삼동, 여수시농업기술센터) 여수시 유기동물보호소",
        "lat": 34.787575,
        "lng": 127.66304,
        "careTel": "061-659-2474"
    },
    {
        "careNm": "유기동물임시보호센터",
        "careAddr": "전라남도 완도군 신지면 신지로6번길 23-89 (신지면) ",
        "lat": 34.331898,
        "lng": 126.781204,
        "careTel": "061-550-5749"
    },
    {
        "careNm": "의령군 동물보호센터",
        "careAddr": "경상남도 의령군 의령읍 남강로 485-75  ",
        "lat": 35.296494,
        "lng": 128.28076,
        "careTel": "055-570-4203"
    },
    {
        "careNm": "의성동물보호센터",
        "careAddr": "경상북도 의성군 의성읍 의성사곡로 101  상리리 440-2",
        "lat": 36.351913,
        "lng": 128.72192,
        "careTel": "***********"
    },
    {
        "careNm": "의왕시청",
        "careAddr": "경기도 의왕시 백운로 23 (오전동) 도시농업과",
        "lat": 37.352077,
        "lng": 126.98226,
        "careTel": "031-345-2383"
    },
    {
        "careNm": "이상윤동물병원",
        "careAddr": "서울특별시 용산구 이촌동 300-23",
        "lat": 37.516815,
        "lng": 126.9762,
        "careTel": "02-792-5455"
    },
    {
        "careNm": "익산유기동물보호소",
        "careAddr": "전북특별자치도 익산시 삼기면 황금로 342-17  ",
        "lat": 36.02582,
        "lng": 126.966545,
        "careTel": "063-855-1214"
    },
    {
        "careNm": "인월동물병원",
        "careAddr": "전북특별자치도 남원시 인월면 인월로 64  ",
        "lat": 35.460613,
        "lng": 127.60212,
        "careTel": "063-636-2873"
    },
    {
        "careNm": "인제군동물보호센터",
        "careAddr": "강원특별자치도 인제군 인제읍 덕산로 256-41  ",
        "lat": 38.058823,
        "lng": 128.16602,
        "careTel": "033-460-2473"
    },
    {
        "careNm": "인천광역시수의사회",
        "careAddr": "인천광역시 계양구 다남로165번길 56 (다남동, 유기동물보호소) ",
        "lat": 37.56624,
        "lng": 126.71964,
        "careTel": "032-515-7567"
    },
    {
        "careNm": "인천광역시수의사회",
        "careAddr": "인천광역시 계양구 다남로165번길 56 (다남동, 유기동물보호소) ",
        "lat": 37.566288,
        "lng": 126.71965,
        "careTel": "032-515-7567"
    },
    {
        "careNm": "인천수의사회유기동물",
        "careAddr": "인천광역시 계양구 다남로165번길 56 (다남동) 인천수의사회유기동물보호소",
        "lat": 37.566288,
        "lng": 126.71965,
        "careTel": "032-515-7567"
    },
    {
        "careNm": "일산동물의료센터",
        "careAddr": "울산광역시 동구 방어진순환도로 645 (일산동) ",
        "lat": 35.499413,
        "lng": 129.4281,
        "careTel": "052-252-5878"
    },
    {
        "careNm": "임실유기동물보호센터",
        "careAddr": "전라북도 임실군 오수면 춘향로 1554-95  펫추모공원 입구, 유기동물보호센터",
        "lat": 35.53888,
        "lng": 127.34328,
        "careTel": "063-640-2504"
    },
    {
        "careNm": "장성군동물보호센터",
        "careAddr": "전라남도 장성군 삼계면 능성로 382-31  0",
        "lat": 35.25374,
        "lng": 126.68537,
        "careTel": "061-390-8423"
    },
    {
        "careNm": "장수군 보호소",
        "careAddr": "전라북도 장수군 천천면 승마1로 152  ",
        "lat": 35.697975,
        "lng": 127.508156,
        "careTel": "063-350-2436"
    },
    {
        "careNm": "장흥군 동물보호센터",
        "careAddr": "전라남도 장흥군 안양면 우드랜드길 288 (안양면, 남도국제교육원) 축산사업소",
        "lat": 34.66766,
        "lng": 126.94461,
        "careTel": "061-860-6713"
    },
    {
        "careNm": "전북말산업복합센터",
        "careAddr": "전라북도 김제시 용지면 금백로 571-39 (용지면) 전북말산업복합센터",
        "lat": 35.823616,
        "lng": 126.99472,
        "careTel": "063-547-3549"
    },
    {
        "careNm": "점곡동물보호센터",
        "careAddr": "경상북도 청송군 현동면 청송로 3128-141  ",
        "lat": 36.30375,
        "lng": 129.05507,
        "careTel": "054-870-6281"
    },
    {
        "careNm": "정샘동물병원",
        "careAddr": "경기도 부천시 원미구 중동로 244 (중동, 상록센트럴타워) 109,110호",
        "lat": 37.501526,
        "lng": 126.769035,
        "careTel": "032-323-4999"
    },
    {
        "careNm": "정선가축병원",
        "careAddr": "강원도 정선군 정선읍 정선로 1321 (정선읍) ",
        "lat": 37.37939,
        "lng": 128.66069,
        "careTel": "033-563-0198"
    },
    {
        "careNm": "정읍시 동물보호소",
        "careAddr": "전북특별자치도 정읍시 2산단5길 37-1 (하북동) ",
        "lat": 35.591347,
        "lng": 126.873535,
        "careTel": "063-535-6295"
    },
    {
        "careNm": "정철동물병원",
        "careAddr": "울산광역시 북구 진장17길 11 (진장동) 정철동물병원",
        "lat": 35.562035,
        "lng": 129.3553,
        "careTel": "052-287-0348"
    },
    {
        "careNm": "제니스동물병원",
        "careAddr": "대구광역시 수성구 달구벌대로 2475 (범어동) ",
        "lat": 35.859123,
        "lng": 128.6334,
        "careTel": "053-756-8293"
    },
    {
        "careNm": "제주 동물보호센터",
        "careAddr": "제주특별자치도 제주시 첨단동길 184-14 (용강동) ",
        "lat": 33.455498,
        "lng": 126.58915,
        "careTel": "064-710-4065"
    },
    {
        "careNm": "제주에니멀119(주)",
        "careAddr": "제주특별자치도 제주시 아봉로 503-1 (용강동) ",
        "lat": 33.474583,
        "lng": 126.58313,
        "careTel": "***********"
    },
    {
        "careNm": "제천시 동물보호센터",
        "careAddr": "충청북도 제천시 금성면 적성로8길 51 (금성면) ",
        "lat": 37.084564,
        "lng": 128.21506,
        "careTel": "043-647-0059"
    },
    {
        "careNm": "조은동물병원",
        "careAddr": "서울특별시 성동구 왕십리로 381 (하왕십리동) ",
        "lat": 37.564587,
        "lng": 127.02786,
        "careTel": "02-2297-0075"
    },
    {
        "careNm": "조재진동물병원",
        "careAddr": "인천광역시 부평구 원적로 419 (산곡동) ",
        "lat": 37.504032,
        "lng": 126.71177,
        "careTel": "032-518-3800"
    },
    {
        "careNm": "종합축산",
        "careAddr": "경상북도 문경시 중앙로 170 (흥덕동) 종합축산",
        "lat": 36.59969,
        "lng": 128.20251,
        "careTel": "054-552-2233"
    },
    {
        "careNm": "주동물병원",
        "careAddr": "울산광역시 남구 돋질로 385-1 (삼산동) ",
        "lat": 35.543655,
        "lng": 129.34712,
        "careTel": "052-268-8275"
    },
    {
        "careNm": "주동물병원",
        "careAddr": "충청남도 계룡시 계룡대로 245 (금암동) 1층",
        "lat": 36.268574,
        "lng": 127.25945,
        "careTel": "042-840-2653"
    },
    {
        "careNm": "증평 가정견 훈련소",
        "careAddr": "충청북도 증평군 도안면 입장길 239  ",
        "lat": 36.846962,
        "lng": 127.60822,
        "careTel": "***********"
    },
    {
        "careNm": "진도군임시보호소",
        "careAddr": "전라남도 진도군 진도읍 성죽골길 30  ",
        "lat": 34.48236,
        "lng": 126.27857,
        "careTel": "061-540-6338"
    },
    {
        "careNm": "진안군유기동물보호소",
        "careAddr": "전북특별자치도 진안군 진안읍 예리길 36  .",
        "lat": 35.780716,
        "lng": 127.46495,
        "careTel": "063-430-8175"
    },
    {
        "careNm": "진주시동물보호센터",
        "careAddr": "경상남도 진주시 집현면 신당길207번길 22 (집현면, 지역농업개발시설) ",
        "lat": 35.226696,
        "lng": 128.12158,
        "careTel": "055-749-6134"
    },
    {
        "careNm": "짱구네동물병원",
        "careAddr": "인천광역시 부평구 평천로 356 (갈산동) ",
        "lat": 37.51761,
        "lng": 126.7297,
        "careTel": "032-511-5515"
    },
    {
        "careNm": "창녕 유기동물보호소",
        "careAddr": "경상남도 창녕군 고암면 창밀로 335-26 (고암면) 고암면 억만리 28",
        "lat": 35.574085,
        "lng": 128.50745,
        "careTel": "***********"
    },
    {
        "careNm": "천안시 동물보호센터",
        "careAddr": "충청남도 천안시 동남구 목천읍 충절로 577  문의전화 : 입양(010-5913-5119), 구조(010-4999-6119)",
        "lat": 36.772705,
        "lng": 127.180046,
        "careTel": "010-5913-5119"
    },
    {
        "careNm": "철원군",
        "careAddr": "강원도 철원군 동송읍 장흥로 311  ",
        "lat": 38.203907,
        "lng": 127.25076,
        "careTel": "033-450-5394"
    },
    {
        "careNm": "첨단우리동물병원",
        "careAddr": "광주광역시 광산구 첨단내촌로70번길 108-9 (월계동) ",
        "lat": 35.21275,
        "lng": 126.84245,
        "careTel": "062-972-6675"
    },
    {
        "careNm": "청도군동물보호센터",
        "careAddr": "경상북도 청도군 청도읍 중앙로 84-466  동물보호센터",
        "lat": 35.649292,
        "lng": 128.73438,
        "careTel": "054-371-9267"
    },
    {
        "careNm": "청양보호소",
        "careAddr": "충청남도 청양군 대치면 청산로 446-17 (대치면) ",
        "lat": 36.47119,
        "lng": 126.8314,
        "careTel": "041-940-2974"
    },
    {
        "careNm": "청원동물병원",
        "careAddr": "전북특별자치도 남원시 죽항동 278번지",
        "lat": 35.407608,
        "lng": 127.38455,
        "careTel": "063-633-3533"
    },
    {
        "careNm": "청조동물병원",
        "careAddr": "부산광역시 연제구 온천천남로 4 (연산동) ",
        "lat": 35.19296,
        "lng": 129.09128,
        "careTel": "051-503-0688"
    },
    {
        "careNm": "초록동물병원",
        "careAddr": "울산광역시 울주군 삼남읍 상평강변길 3  ",
        "lat": 35.56294,
        "lng": 129.12163,
        "careTel": "052-262-6114"
    },
    {
        "careNm": "최동물병원",
        "careAddr": "충청남도 태안군 태안읍 남문리 504-6",
        "lat": 36.753563,
        "lng": 126.292114,
        "careTel": "041-672-0346"
    },
    {
        "careNm": "최종주동물병원",
        "careAddr": "충청북도 영동군 영동읍 계산로 54 (영동읍, 최종주동물병원) ",
        "lat": 36.172623,
        "lng": 127.78233,
        "careTel": "043-744-4209"
    },
    {
        "careNm": "춘천시 동물보호센터",
        "careAddr": "강원도 춘천시 신북읍 영서로 3282 (신북읍) (전)102보충대 주차장",
        "lat": 37.92321,
        "lng": 127.73448,
        "careTel": "033-245-5351"
    },
    {
        "careNm": "충주시동물보호센터",
        "careAddr": "충청북도 충주시 중앙탑면 일곱실길 70 (중앙탑면) ",
        "lat": 37.00836,
        "lng": 127.849754,
        "careTel": "043-851-3168"
    },
    {
        "careNm": "칠곡유기동물보호센터",
        "careAddr": "경상북도 칠곡군 석적읍 포망로 341 (석적읍) ",
        "lat": 36.040894,
        "lng": 128.44196,
        "careTel": "054-973-5710"
    },
    {
        "careNm": "쿨펫 홈플러스 북구점",
        "careAddr": "울산광역시 북구 신답로 26 (상안동, 홈플러스) 쿨펫동물병원 홈플러스 북구점",
        "lat": 35.630043,
        "lng": 129.34488,
        "careTel": "052-286-3567"
    },
    {
        "careNm": "쿨펫동물병원",
        "careAddr": "울산광역시 북구 진장유통로 64 (진장동, 롯데마트) 4층 쿨펫동물병원",
        "lat": 35.576,
        "lng": 129.35902,
        "careTel": "052-288-7572"
    },
    {
        "careNm": "태민동물보호센터",
        "careAddr": "경상남도 합천군 합천읍 옥산로 16 (합천읍, 까치빌라) 태민동물병원",
        "lat": 35.568718,
        "lng": 128.15666,
        "careTel": "***********"
    },
    {
        "careNm": "태백시유기동물보호소",
        "careAddr": "강원도 태백시 문의재로 5 (통동) ",
        "lat": 37.17289,
        "lng": 129.04079,
        "careTel": "***********"
    },
    {
        "careNm": "태안 동물보호소",
        "careAddr": "충청남도 태안군 남면 몽대로 249  ",
        "lat": 36.6902,
        "lng": 126.265,
        "careTel": "041-670-2827"
    },
    {
        "careNm": "통영시동물보호센터",
        "careAddr": "경상남도 통영시 광도면 전두1길 9-8  ",
        "lat": 34.904404,
        "lng": 128.40443,
        "careTel": "055-650-6291"
    },
    {
        "careNm": "패밀리동물병원",
        "careAddr": "전북특별자치도 전주시 덕진구 동부대로 877 (호성동1가) 202호",
        "lat": 35.864346,
        "lng": 127.1486,
        "careTel": "063-244-7585"
    },
    {
        "careNm": "펫365동물병원",
        "careAddr": "서울특별시 성동구 독서당로 328 (금호동4가) ",
        "lat": 34.547943,
        "lng": 127.02523,
        "careTel": "02-2282-3653"
    },
    {
        "careNm": "펫동물병원",
        "careAddr": "대구광역시 수성구 달구벌대로 3144 (노변동) 펫동물병원",
        "lat": 35.84144,
        "lng": 128.70085,
        "careTel": "053-474-9820"
    },
    {
        "careNm": "펫앤쉘터동물병원",
        "careAddr": "경기도 성남시 분당구 불정로 266 (수내동, 유신제일조합) ",
        "lat": 37.3671,
        "lng": 127.12769,
        "careTel": "031-714-8392"
    },
    {
        "careNm": "펫토이동물병원",
        "careAddr": "서울특별시 용산구 한남동 653-26",
        "lat": 37.533978,
        "lng": 127.00258,
        "careTel": "02-795-2184"
    },
    {
        "careNm": "평창군유기동물보호소",
        "careAddr": "강원도 평창군 진부면 청송로 61 ",
        "lat": 37.63677,
        "lng": 128.55336,
        "careTel": "***********"
    },
    {
        "careNm": "프렌즈동물병원",
        "careAddr": "전라북도 전주시 완산구 삼천동1가 592-1",
        "lat": 35.79633,
        "lng": 127.12237,
        "careTel": "063-227-4975"
    },
    {
        "careNm": "하나동물병원",
        "careAddr": "전북특별자치도 남원시 왕정동 67 ",
        "lat": 35.406647,
        "lng": 127.375534,
        "careTel": "063-634-7582"
    },
    {
        "careNm": "하남동물보호센터",
        "careAddr": "경기도 하남시 미사동로40번길 75-91 (미사동) ",
        "lat": 37.568756,
        "lng": 127.207596,
        "careTel": "031-790-5853"
    },
    {
        "careNm": "하동군유기동물보호소",
        "careAddr": "경상남도 하동군 적량면 한옥정길 90 (적량면) 유기동물보호소",
        "lat": 35.078846,
        "lng": 127.76912,
        "careTel": "055-880-2677"
    },
    {
        "careNm": "학교임시동물보호센터",
        "careAddr": "전라남도 함평군 학교면 송산길 84 (학교면) 월산리 806-1 ",
        "lat": 35.04549,
        "lng": 126.538994,
        "careTel": "***********"
    },
    {
        "careNm": "한국동물구조관리협회",
        "careAddr": "경기도 양주시 남면 감악산로 63-37 (남면) ",
        "lat": 37.8701,
        "lng": 126.98354,
        "careTel": "031-867-9119"
    },
    {
        "careNm": "한국동물구조관리협회",
        "careAddr": "경기도 양주시 남면 감악산로 63-37 (남면) 한국동물구조관리협회",
        "lat": 37.870117,
        "lng": 126.98354,
        "careTel": "031-867-9119"
    },
    {
        "careNm": "한국동물구조관리협회",
        "careAddr": "경기도 양주시 남면 감악산로 63-37 (남면) ",
        "lat": 37.869892,
        "lng": 126.983116,
        "careTel": "031-867-9119"
    },
    {
        "careNm": "한국동물구조관리협회",
        "careAddr": "경기도 양주시 남면 감악산로 63-37 ",
        "lat": 37.869892,
        "lng": 126.983116,
        "careTel": "031-867-9119"
    },
    {
        "careNm": "한국동물구조관리협회",
        "careAddr": "경기도 양주시 남면 감악산로 63-37 ",
        "lat": 37.8701,
        "lng": 126.98354,
        "careTel": "031-867-9119"
    },
    {
        "careNm": "한국동물구조관리협회",
        "careAddr": "경기도 양주시 남면 감악산로 63-37  한국동물구조관리협회",
        "lat": 37.8701,
        "lng": 126.98354,
        "careTel": "031-867-9119"
    },
    {
        "careNm": "한국동물구조관리협회",
        "careAddr": "경기도 양주시 남면 감악산로 63-37 (남면) ",
        "lat": 37.8701,
        "lng": 126.98354,
        "careTel": "031-867-9119"
    },
    {
        "careNm": "한국동물구조관리협회",
        "careAddr": "경기도 양주시 남면 감악산로 63-37 (남면) ",
        "lat": 37.8701,
        "lng": 126.98354,
        "careTel": "031-867-9119"
    },
    {
        "careNm": "한국동물구조관리협회",
        "careAddr": "경기도 양주시 남면 감악산로 63-37 (남면) 한국동물구조관리협회",
        "lat": 37.8701,
        "lng": 126.98354,
        "careTel": "031-867-9119"
    },
    {
        "careNm": "한국동물구조관리협회",
        "careAddr": "경기도 양주시 남면 감악산로 63-37  ",
        "lat": 37.8701,
        "lng": 126.98354,
        "careTel": "031-867-9119"
    },
    {
        "careNm": "한국동물구조관리협회",
        "careAddr": "경기도 양주시 남면 감악산로 63-37 (남면) ",
        "lat": 37.8701,
        "lng": 126.98354,
        "careTel": "031-867-9119"
    },
    {
        "careNm": "한국동물구조관리협회",
        "careAddr": "경기도 양주시 남면 감악산로 63-37 ",
        "lat": 37.8701,
        "lng": 126.98354,
        "careTel": "031-867-9119"
    },
    {
        "careNm": "한국동물구조관리협회",
        "careAddr": "경기도 양주시 남면 감악산로 63-37 (남면) ",
        "lat": 37.8701,
        "lng": 126.98354,
        "careTel": "031-867-9119"
    },
    {
        "careNm": "한국동물구조관리협회",
        "careAddr": "경기도 양주시 남면 감악산로 63-37 (남면) ",
        "lat": 37.8701,
        "lng": 126.98354,
        "careTel": "031-868-2851"
    },
    {
        "careNm": "한국동물구조관리협회",
        "careAddr": "경기도 양주시 남면 감악산로 63-37  ",
        "lat": 37.870117,
        "lng": 126.98354,
        "careTel": "031-867-9119"
    },
    {
        "careNm": "한국동물구조관리협회",
        "careAddr": "경기도 양주시 남면 감악산로 63-48  ",
        "lat": 37.870117,
        "lng": 126.98354,
        "careTel": "031-867-9119"
    },
    {
        "careNm": "한국동물구조관리협회",
        "careAddr": "경기도 양주시 남면 감악산로 63-37 (남면) ",
        "lat": 37.8701,
        "lng": 126.98354,
        "careTel": "031-867-9119"
    },
    {
        "careNm": "한국동물구조관리협회",
        "careAddr": "경기도 양주시 남면 감악산로 63-37  ",
        "lat": 37.8701,
        "lng": 126.98354,
        "careTel": "031-867-9119"
    },
    {
        "careNm": "한국동물구조관리협회",
        "careAddr": "경기도 양주시 남면 감악산로 63-37 (남면) ",
        "lat": 37.870663,
        "lng": 126.98335,
        "careTel": "031-867-9119"
    },
    {
        "careNm": "한국동물구조관리협회",
        "careAddr": "경기도 양주시 남면 감악산로 63-37 ",
        "lat": 37.870117,
        "lng": 126.98354,
        "careTel": "031-867-9119"
    },
    {
        "careNm": "한국동물구조관리협회",
        "careAddr": "경기도 양주시 남면 감악산로 63-37 (남면) ",
        "lat": 37.8701,
        "lng": 126.98354,
        "careTel": "031-867-9119"
    },
    {
        "careNm": "한국동물구조관리협회",
        "careAddr": "경기도 양주시 남면 감악산로 63-37  ",
        "lat": 37.8701,
        "lng": 126.98354,
        "careTel": "031-867-9119"
    },
    {
        "careNm": "한국동물구조관리협회",
        "careAddr": "경기도 양주시 남면 감악산로 63-37  (사)한국동물구조관리협회",
        "lat": 37.8701,
        "lng": 126.98354,
        "careTel": "031-867-9119"
    },
    {
        "careNm": "한국동물구조관리협회",
        "careAddr": "경기도 양주시 남면 감악산로 63-37  ",
        "lat": 37.87019,
        "lng": 126.9831,
        "careTel": "031-867-9119"
    },
    {
        "careNm": "한국동물구조관리협회",
        "careAddr": "경기도 양주시 남면 감악산로 63-37 ",
        "lat": 37.8701,
        "lng": 126.98354,
        "careTel": "031-867-9119"
    },
    {
        "careNm": "한국동물구조관리협회",
        "careAddr": "경기도 양주시 남면 감악산로 63-37  ",
        "lat": 37.870483,
        "lng": 126.98364,
        "careTel": "031-867-9119"
    },
    {
        "careNm": "한국동물구조관리협회",
        "careAddr": "경기도 양주시 남면 감악산로 63-37 (남면) ",
        "lat": 37.870117,
        "lng": 126.98354,
        "careTel": "031-867-9119"
    },
    {
        "careNm": "한국동물구조관리협회",
        "careAddr": "경기도 양주시 남면 감악산로 63-37 (남면) ",
        "lat": 37.870483,
        "lng": 126.98364,
        "careTel": "031-867-9119"
    },
    {
        "careNm": "한국동물구조관리협회",
        "careAddr": "경기도 양주시 남면 상수리 410-1",
        "lat": 37.898113,
        "lng": 126.97668,
        "careTel": "031-867-9119"
    },
    {
        "careNm": "한국야생동물보호협회",
        "careAddr": "경기도 안산시 상록구 청곡길 50 (부곡동) ",
        "lat": 37.340107,
        "lng": 126.86997,
        "careTel": "031-296-0124"
    },
    {
        "careNm": "한국야생동물보호협회",
        "careAddr": "경기도 안산시 상록구 청곡길 50 (부곡동) (사)한국야생동물보호협회",
        "lat": 37.34025,
        "lng": 126.870026,
        "careTel": "031-296-0124"
    },
    {
        "careNm": "한국야생동물보호협회",
        "careAddr": "경기도 안산시 상록구 청곡길 50 (부곡동) ",
        "lat": 37.340256,
        "lng": 126.87,
        "careTel": "031-296-0124"
    },
    {
        "careNm": "한국야생동물보호협회",
        "careAddr": "경기도 안산시 상록구 청곡길 50 (부곡동) 한국야생동물보호협회",
        "lat": 37.34025,
        "lng": 126.870026,
        "careTel": "031-296-0124"
    },
    {
        "careNm": "한국야생동물보호협회",
        "careAddr": "경기도 안산시 상록구 청곡길 50 (부곡동) 안산시 상록구 부곡동 231-5",
        "lat": 37.34025,
        "lng": 126.870026,
        "careTel": "031-296-0124"
    },
    {
        "careNm": "한국야생동물보호협회",
        "careAddr": "경기도 안산시 상록구 청곡길 50 (부곡동) ",
        "lat": 37.34025,
        "lng": 126.870026,
        "careTel": "031-296-0124"
    },
    {
        "careNm": "한빛동물병원",
        "careAddr": "서울특별시 성동구 금호산길 58 (금호동2가) ",
        "lat": 37.553337,
        "lng": 127.01954,
        "careTel": "02-2233-1848"
    },
    {
        "careNm": "함안군유기동물보호소",
        "careAddr": "경상남도 함안군 가야읍 함안대로 755 ",
        "lat": 35.29307,
        "lng": 128.3985,
        "careTel": "***********"
    },
    {
        "careNm": "함양군위탁보호소",
        "careAddr": "경상남도 함양군 함양읍 함양남서로 996-76 (함양읍, 농업기술센터) ",
        "lat": 35.50759,
        "lng": 127.74137,
        "careTel": "055-960-8143"
    },
    {
        "careNm": "행복한동물병원",
        "careAddr": "전라북도 전주시 덕진구 인후동1가 806-6",
        "lat": 35.83134,
        "lng": 127.15799,
        "careTel": "063-244-0090"
    },
    {
        "careNm": "허동물병원",
        "careAddr": "대구광역시 수성구 수성동2가 명덕로 421 (수성동2가) 허동물병원",
        "lat": 35.854633,
        "lng": 128.61632,
        "careTel": "053-752-7535"
    },
    {
        "careNm": "현풍동물병원",
        "careAddr": "대구광역시 달성군 유가읍 테크노공원로 51 (유가읍) ",
        "lat": 35.69199,
        "lng": 128.45877,
        "careTel": "053-614-3570"
    },
    {
        "careNm": "홍익동물병원",
        "careAddr": "서울특별시 마포구 독막로 45 (합정동) ",
        "lat": 37.5481,
        "lng": 126.91839,
        "careTel": "02-325-2026"
    },
    {
        "careNm": "홍천군유기동물보호소",
        "careAddr": "강원도 홍천군 화촌면 둔덕이길 68 (화촌면, 홍천군유기동물보호센터) ",
        "lat": 37.755093,
        "lng": 127.94747,
        "careTel": "033-434-9435"
    },
    {
        "careNm": "화성동물보호센터",
        "careAddr": "경기도 화성시 남양읍 화성로 1483-27 (남양읍) ",
        "lat": 37.22495,
        "lng": 126.84342,
        "careTel": "031-356-2281"
    },
    {
        "careNm": "화순군유기동물보호소",
        "careAddr": "전라남도 화순군 한천면 덕음로 115 (한천면) ",
        "lat": 34.98535,
        "lng": 126.998924,
        "careTel": "***********"
    },
    {
        "careNm": "화원연합동물병원",
        "careAddr": "대구광역시 달성군 화원읍 사문진로 447 (화원읍) 화원읍 관할",
        "lat": 35.803734,
        "lng": 128.49742,
        "careTel": "053-634-7975"
    },
    {
        "careNm": "화천군농업기술센터",
        "careAddr": "강원도 화천군 상서면 영서로 6387-9  화천농업기술센터",
        "lat": 38.115845,
        "lng": 127.681946,
        "careTel": "033-440-2941"
    },
    {
        "careNm": "횡성유기동물보호센터",
        "careAddr": "강원도 원주시 호저면 칠봉로 110-6  ",
        "lat": 37.416325,
        "lng": 127.91286,
        "careTel": "033-731-1119"
    },
    {
        "careNm": "효자동물병원",
        "careAddr": "전라북도 전주시 완산구 백제대로 121 (효자동1가) ",
        "lat": 35.803795,
        "lng": 127.123764,
        "careTel": "063-224-6672"
    }
]